{"business_id": "vcNAWiLM4dR7D2nwwJ7nCA", "full_address": "4840 E Indian School Rd\nSte 101\nPhoenix, AZ 85018", "hours": {"Tuesday": {"close": "17:00", "open": "08:00"}, "Friday": {"close": "17:00", "open": "08:00"}, "Monday": {"close": "17:00", "open": "08:00"}, "Wednesday": {"close": "17:00", "open": "08:00"}, "Thursday": {"close": "17:00", "open": "08:00"}}, "open": true, "categories": ["Doctors", "Health & Medical"], "city": "Phoenix", "review_count": 9, "name": "Eric Goldberg, MD", "neighborhoods": [], "longitude": -111.98375799999999, "state": "AZ", "stars": 3.5, "latitude": 33.499313000000001, "attributes": {"By Appointment Only": true}, "type": "business"}
{"business_id": "UsFtqoBl7naz8AVUBZMjQQ", "full_address": "202 McClure St\nDravosburg, PA 15034", "hours": {}, "open": true, "categories": ["Nightlife"], "city": "Dravosburg", "review_count": 4, "name": "Clancy's Pub", "neighborhoods": [], "longitude": -79.886930000000007, "state": "PA", "stars": 3.5, "latitude": 40.350518999999998, "attributes": {"Happy Hour": true, "Accepts Credit Cards": true, "Good For Groups": true, "Outdoor Seating": false, "Price Range": 1}, "type": "business"}
{"business_id": "cE27W9VPgO88Qxe4ol6y_g", "full_address": "1530 Hamilton Rd\nBethel Park, PA 15234", "hours": {}, "open": false, "categories": ["Active Life", "Mini Golf", "Golf"], "city": "Bethel Park", "review_count": 5, "name": "Cool Springs Golf Center", "neighborhoods": [], "longitude": -80.015910000000005, "state": "PA", "stars": 2.5, "latitude": 40.356896200000001, "attributes": {"Good for Kids": true}, "type": "business"}
{"business_id": "HZdLhv6COCleJMo7nPl-RA", "full_address": "301 S Hills Vlg\nPittsburgh, PA 15241", "hours": {"Monday": {"close": "21:00", "open": "10:00"}, "Tuesday": {"close": "21:00", "open": "10:00"}, "Friday": {"close": "21:00", "open": "10:00"}, "Wednesday": {"close": "21:00", "open": "10:00"}, "Thursday": {"close": "21:00", "open": "10:00"}, "Sunday": {"close": "18:00", "open": "11:00"}, "Saturday": {"close": "21:00", "open": "10:00"}}, "open": true, "categories": ["Shopping", "Home Services", "Internet Service Providers", "Mobile Phones", "Professional Services", "Electronics"], "city": "Pittsburgh", "review_count": 3, "name": "Verizon Wireless", "neighborhoods": [], "longitude": -80.059979999999996, "state": "PA", "stars": 3.5, "latitude": 40.357619999999997, "attributes": {}, "type": "business"}
